[
  {"id":101,"name":"ライフ 札幌駅前店","branch":"","address":"北海道札幌市xx-xx","lat":43.0618,"lon":141.3545,"genre":"スーパー","open_hours":"9:00-22:00"},
  {"id":102,"name":"成城石井 小樽運河店","branch":"","address":"北海道小樽市xx-xx","lat":43.1907,"lon":141.0028,"genre":"スーパー","open_hours":"10:00-21:00"},

  {"id":103,"name":"マルエツ 青森県庁前店","branch":"","address":"青森県青森市xx-xx","lat":40.8246,"lon":140.7406,"genre":"スーパー","open_hours":"9:00-21:00"},
  {"id":104,"name":"成城石井 八戸駅前店","branch":"","address":"青森県八戸市xx-xx","lat":40.5122,"lon":141.4886,"genre":"スーパー","open_hours":"10:00-22:00"},

  {"id":105,"name":"いなげや 盛岡大通店","branch":"","address":"岩手県盛岡市xx-xx","lat":39.7036,"lon":141.1527,"genre":"スーパー","open_hours":"9:00-22:00"},
  {"id":106,"name":"ライフ 一関駅前店","branch":"","address":"岩手県一関市xx-xx","lat":38.9342,"lon":141.1260,"genre":"スーパー","open_hours":"9:30-21:00"},

  {"id":107,"name":"ライフ 仙台駅東口店","branch":"","address":"宮城県仙台市xx-xx","lat":38.2688,"lon":140.8719,"genre":"スーパー","open_hours":"9:00-23:00"},
  {"id":108,"name":"マルエツ 石巻中央店","branch":"","address":"宮城県石巻市xx-xx","lat":38.4340,"lon":141.3020,"genre":"スーパー","open_hours":"9:00-21:00"},

  {"id":109,"name":"マルエツ 秋田駅前店","branch":"","address":"秋田県秋田市xx-xx","lat":39.7200,"lon":140.1030,"genre":"スーパー","open_hours":"9:00-21:00"},
  {"id":110,"name":"ライフ 横手条里店","branch":"","address":"秋田県横手市xx-xx","lat":39.3130,"lon":140.5660,"genre":"スーパー","open_hours":"10:00-21:00"},

  {"id":111,"name":"いなげや 山形七日町店","branch":"","address":"山形県山形市xx-xx","lat":38.2550,"lon":140.3390,"genre":"スーパー","open_hours":"9:00-21:00"},
  {"id":112,"name":"ライフ 鶴岡駅前店","branch":"","address":"山形県鶴岡市xx-xx","lat":38.7270,"lon":139.8260,"genre":"スーパー","open_hours":"10:00-21:00"},

  {"id":113,"name":"マルエツ 福島駅西口店","branch":"","address":"福島県福島市xx-xx","lat":37.7500,"lon":140.4670,"genre":"スーパー","open_hours":"9:00-22:00"},
  {"id":114,"name":"成城石井 郡山駅前店","branch":"","address":"福島県郡山市xx-xx","lat":37.4000,"lon":140.3590,"genre":"スーパー","open_hours":"10:00-22:00"},

  {"id":115,"name":"ライフ 水戸南口店","branch":"","address":"茨城県水戸市xx-xx","lat":36.3410,"lon":140.4460,"genre":"スーパー","open_hours":"9:00-22:00"},
  {"id":116,"name":"マルエツ つくば研究学園店","branch":"","address":"茨城県つくば市xx-xx","lat":36.0820,"lon":140.1100,"genre":"スーパー","open_hours":"9:00-23:00"},

  {"id":117,"name":"いなげや 宇都宮大通り店","branch":"","address":"栃木県宇都宮市xx-xx","lat":36.5550,"lon":139.8820,"genre":"スーパー","open_hours":"9:00-22:00"},
  {"id":118,"name":"ライフ 日光東照宮前店","branch":"","address":"栃木県日光市xx-xx","lat":36.7200,"lon":139.6980,"genre":"スーパー","open_hours":"10:00-20:00"},

  {"id":119,"name":"マルエツ 前橋中央店","branch":"","address":"群馬県前橋市xx-xx","lat":36.3900,"lon":139.0600,"genre":"スーパー","open_hours":"9:00-22:00"},
  {"id":120,"name":"ライフ 高崎駅前店","branch":"","address":"群馬県高崎市xx-xx","lat":36.3220,"lon":139.0120,"genre":"スーパー","open_hours":"9:30-22:00"},

  {"id":121,"name":"ライフ さいたま新都心店","branch":"","address":"埼玉県さいたま市xx-xx","lat":35.8610,"lon":139.6450,"genre":"スーパー","open_hours":"9:00-23:00"},
  {"id":122,"name":"成城石井 川越一番街店","branch":"","address":"埼玉県川越市xx-xx","lat":35.9170,"lon":139.4840,"genre":"スーパー","open_hours":"10:00-22:00"},

  {"id":123,"name":"マルエツ 千葉中央店","branch":"","address":"千葉県千葉市xx-xx","lat":35.6070,"lon":140.1060,"genre":"スーパー","open_hours":"9:00-23:00"},
  {"id":124,"name":"ライフ 柏駅西口店","branch":"","address":"千葉県柏市xx-xx","lat":35.8620,"lon":139.9730,"genre":"スーパー","open_hours":"9:30-22:00"},

  {"id":125,"name":"三越伊勢丹 日本橋店（モック）","branch":"","address":"東京都中央区xx-xx","lat":35.6810,"lon":139.7670,"genre":"百貨店","open_hours":"10:00-20:00"},
  {"id":126,"name":"成城石井 新宿駅南口店","branch":"","address":"東京都新宿区xx-xx","lat":35.6900,"lon":139.7000,"genre":"スーパー","open_hours":"8:00-23:00"},

  {"id":127,"name":"ライフ 横浜みなとみらい店","branch":"","address":"神奈川県横浜市xx-xx","lat":35.4440,"lon":139.6380,"genre":"スーパー","open_hours":"9:00-23:00"},
  {"id":128,"name":"マルエツ 川崎駅前店","branch":"","address":"神奈川県川崎市xx-xx","lat":35.5310,"lon":139.7050,"genre":"スーパー","open_hours":"9:00-22:00"},

  {"id":129,"name":"原信 新潟万代店（モック）","branch":"","address":"新潟県新潟市xx-xx","lat":37.9160,"lon":139.0360,"genre":"スーパー","open_hours":"9:00-22:00"},
  {"id":130,"name":"いなげや 長岡駅前店","branch":"","address":"新潟県長岡市xx-xx","lat":37.4460,"lon":138.8500,"genre":"スーパー","open_hours":"9:30-21:00"},

  {"id":131,"name":"アルビス 富山駅前店（モック）","branch":"","address":"富山県富山市xx-xx","lat":36.6950,"lon":137.2130,"genre":"スーパー","open_hours":"9:00-21:00"},
  {"id":132,"name":"マルエツ 高岡古城公園前店","branch":"","address":"富山県高岡市xx-xx","lat":36.7540,"lon":137.0250,"genre":"スーパー","open_hours":"10:00-21:00"},

  {"id":133,"name":"ライフ 金沢香林坊店","branch":"","address":"石川県金沢市xx-xx","lat":36.5610,"lon":136.6560,"genre":"スーパー","open_hours":"9:00-22:00"},
  {"id":134,"name":"マルエツ 七尾駅前店","branch":"","address":"石川県七尾市xx-xx","lat":37.0430,"lon":136.9670,"genre":"スーパー","open_hours":"10:00-21:00"},

  {"id":135,"name":"バロー 福井駅前店（モック）","branch":"","address":"福井県福井市xx-xx","lat":36.0640,"lon":136.2190,"genre":"スーパー","open_hours":"9:00-21:00"},
  {"id":136,"name":"マルエツ 敦賀中央店","branch":"","address":"福井県敦賀市xx-xx","lat":35.6450,"lon":136.0560,"genre":"スーパー","open_hours":"9:30-21:00"},

  {"id":137,"name":"いちやまマート 甲府駅前店（モック）","branch":"","address":"山梨県甲府市xx-xx","lat":35.6640,"lon":138.5680,"genre":"スーパー","open_hours":"9:00-21:00"},
  {"id":138,"name":"ライフ 富士吉田店","branch":"","address":"山梨県富士吉田市xx-xx","lat":35.4870,"lon":138.8070,"genre":"スーパー","open_hours":"10:00-20:00"},

  {"id":139,"name":"ツルヤ 長野権堂店（モック）","branch":"","address":"長野県長野市xx-xx","lat":36.6480,"lon":138.1940,"genre":"スーパー","open_hours":"9:00-21:00"},
  {"id":140,"name":"マルエツ 松本城下町店","branch":"","address":"長野県松本市xx-xx","lat":36.2380,"lon":137.9710,"genre":"スーパー","open_hours":"9:30-21:00"},

  {"id":141,"name":"バロー 岐阜駅前店（モック）","branch":"","address":"岐阜県岐阜市xx-xx","lat":35.4230,"lon":136.7600,"genre":"スーパー","open_hours":"9:00-22:00"},
  {"id":142,"name":"マルエツ 高山古い町並店","branch":"","address":"岐阜県高山市xx-xx","lat":36.1460,"lon":137.2520,"genre":"スーパー","open_hours":"10:00-20:00"},

  {"id":143,"name":"マルエツ 静岡駅南口店","branch":"","address":"静岡県静岡市xx-xx","lat":34.9760,"lon":138.3830,"genre":"スーパー","open_hours":"9:00-22:00"},
  {"id":144,"name":"ライフ 浜松佐鳴台店","branch":"","address":"静岡県浜松市xx-xx","lat":34.7100,"lon":137.7260,"genre":"スーパー","open_hours":"9:30-21:30"},

  {"id":145,"name":"成城石井 名古屋栄店","branch":"","address":"愛知県名古屋市xx-xx","lat":35.1810,"lon":136.9060,"genre":"スーパー","open_hours":"8:00-23:00"},
  {"id":146,"name":"マルエツ 豊田駅前店","branch":"","address":"愛知県豊田市xx-xx","lat":35.0830,"lon":137.1560,"genre":"スーパー","open_hours":"9:00-22:00"},

  {"id":147,"name":"マックスバリュ 津中央店（モック）","branch":"","address":"三重県津市xx-xx","lat":34.7300,"lon":136.5080,"genre":"スーパー","open_hours":"9:00-21:00"},
  {"id":148,"name":"ライフ 四日市近鉄前店","branch":"","address":"三重県四日市市xx-xx","lat":34.9670,"lon":136.6240,"genre":"スーパー","open_hours":"9:30-22:00"},

  {"id":149,"name":"平和堂 大津駅前店（モック）","branch":"","address":"滋賀県大津市xx-xx","lat":35.0170,"lon":135.8540,"genre":"スーパー","open_hours":"9:00-22:00"},
  {"id":150,"name":"ライフ 草津草津川店","branch":"","address":"滋賀県草津市xx-xx","lat":35.0160,"lon":135.9610,"genre":"スーパー","open_hours":"9:30-21:30"},

  {"id":151,"name":"ライフ 京都烏丸御池店","branch":"","address":"京都府京都市xx-xx","lat":35.0110,"lon":135.7680,"genre":"スーパー","open_hours":"9:00-22:00"},
  {"id":152,"name":"マルエツ 宇治平等院店","branch":"","address":"京都府宇治市xx-xx","lat":34.8840,"lon":135.7990,"genre":"スーパー","open_hours":"10:00-21:00"},

  {"id":153,"name":"ライフ 大阪梅田店","branch":"","address":"大阪府大阪市xx-xx","lat":34.6930,"lon":135.5020,"genre":"スーパー","open_hours":"9:00-23:00"},
  {"id":154,"name":"マルエツ 堺東銀座店","branch":"","address":"大阪府堺市xx-xx","lat":34.5730,"lon":135.4820,"genre":"スーパー","open_hours":"9:30-22:00"},

  {"id":155,"name":"いかりスーパー 神戸三宮店（モック）","branch":"","address":"兵庫県神戸市xx-xx","lat":34.6900,"lon":135.1950,"genre":"スーパー","open_hours":"9:00-22:00"},
  {"id":156,"name":"マルエツ 姫路駅北口店","branch":"","address":"兵庫県姫路市xx-xx","lat":34.8150,"lon":134.6850,"genre":"スーパー","open_hours":"9:30-21:30"},

  {"id":157,"name":"ライフ 奈良三条通店","branch":"","address":"奈良県奈良市xx-xx","lat":34.6850,"lon":135.8050,"genre":"スーパー","open_hours":"9:00-21:00"},
  {"id":158,"name":"マルエツ 橿原神宮前店","branch":"","address":"奈良県橿原市xx-xx","lat":34.5120,"lon":135.7920,"genre":"スーパー","open_hours":"10:00-21:00"},

  {"id":159,"name":"ライフ 和歌山城下店","branch":"","address":"和歌山県和歌山市xx-xx","lat":34.2260,"lon":135.1670,"genre":"スーパー","open_hours":"9:00-21:00"},
  {"id":160,"name":"マルエツ 田辺駅前店","branch":"","address":"和歌山県田辺市xx-xx","lat":33.7340,"lon":135.3760,"genre":"スーパー","open_hours":"9:30-21:00"},

  {"id":161,"name":"マルイ 鳥取駅前店（モック）","branch":"","address":"鳥取県鳥取市xx-xx","lat":35.5010,"lon":134.2350,"genre":"スーパー","open_hours":"9:00-21:00"},
  {"id":162,"name":"ライフ 米子加茂町店","branch":"","address":"鳥取県米子市xx-xx","lat":35.4280,"lon":133.3300,"genre":"スーパー","open_hours":"10:00-21:00"},

  {"id":163,"name":"キヌヤ 松江城下店（モック）","branch":"","address":"島根県松江市xx-xx","lat":35.4680,"lon":133.0500,"genre":"スーパー","open_hours":"9:00-21:00"},
  {"id":164,"name":"マルエツ 出雲大社前店","branch":"","address":"島根県出雲市xx-xx","lat":35.3670,"lon":132.7540,"genre":"スーパー","open_hours":"9:30-21:00"},

  {"id":165,"name":"天満屋ハピータウン 岡山駅前店（モック）","branch":"","address":"岡山県岡山市xx-xx","lat":34.6550,"lon":133.9190,"genre":"スーパー","open_hours":"9:00-21:00"},
  {"id":166,"name":"ライフ 倉敷美観地区店","branch":"","address":"岡山県倉敷市xx-xx","lat":34.5840,"lon":133.7710,"genre":"スーパー","open_hours":"9:30-21:00"},

  {"id":167,"name":"フレスタ 広島紙屋町店（モック）","branch":"","address":"広島県広島市xx-xx","lat":34.3850,"lon":132.4550,"genre":"スーパー","open_hours":"9:00-22:00"},
  {"id":168,"name":"マルエツ 福山駅前店","branch":"","address":"広島県福山市xx-xx","lat":34.4850,"lon":133.3620,"genre":"スーパー","open_hours":"9:30-21:30"},

  {"id":169,"name":"マルエツ 山口県庁前店","branch":"","address":"山口県山口市xx-xx","lat":34.1780,"lon":131.4730,"genre":"スーパー","open_hours":"9:00-21:00"},
  {"id":170,"name":"ライフ 下関唐戸店","branch":"","address":"山口県下関市xx-xx","lat":33.9570,"lon":130.9410,"genre":"スーパー","open_hours":"10:00-21:00"},

  {"id":171,"name":"フジグラン 徳島駅前店（モック）","branch":"","address":"徳島県徳島市xx-xx","lat":34.0700,"lon":134.5540,"genre":"スーパー","open_hours":"9:00-21:00"},
  {"id":172,"name":"マルエツ 阿南中央店","branch":"","address":"徳島県阿南市xx-xx","lat":33.9170,"lon":134.6550,"genre":"スーパー","open_hours":"9:30-21:00"},

  {"id":173,"name":"マルナカ 高松中央店（モック）","branch":"","address":"香川県高松市xx-xx","lat":34.3420,"lon":134.0460,"genre":"スーパー","open_hours":"9:00-22:00"},
  {"id":174,"name":"ライフ 丸亀城下店","branch":"","address":"香川県丸亀市xx-xx","lat":34.2890,"lon":133.7990,"genre":"スーパー","open_hours":"9:30-21:00"},

  {"id":175,"name":"フジ 松山大街道店（モック）","branch":"","address":"愛媛県松山市xx-xx","lat":33.8390,"lon":132.7650,"genre":"スーパー","open_hours":"9:00-21:00"},
  {"id":176,"name":"マルエツ 今治駅前店","branch":"","address":"愛媛県今治市xx-xx","lat":34.0660,"lon":133.0000,"genre":"スーパー","open_hours":"10:00-21:00"},

  {"id":177,"name":"サニーマート 高知帯屋町店（モック）","branch":"","address":"高知県高知市xx-xx","lat":33.5590,"lon":133.5310,"genre":"スーパー","open_hours":"9:00-21:00"},
  {"id":178,"name":"ライフ 四万十中村店","branch":"","address":"高知県四万十市xx-xx","lat":32.9900,"lon":132.9330,"genre":"スーパー","open_hours":"9:30-20:30"},

  {"id":179,"name":"ライフ 天神警固店","branch":"","address":"福岡県福岡市xx-xx","lat":33.5900,"lon":130.4010,"genre":"スーパー","open_hours":"9:00-23:00"},
  {"id":180,"name":"マルエツ 小倉駅前店","branch":"","address":"福岡県北九州市xx-xx","lat":33.8830,"lon":130.8750,"genre":"スーパー","open_hours":"9:30-22:00"},

  {"id":181,"name":"マックスバリュ 佐賀駅前店（モック）","branch":"","address":"佐賀県佐賀市xx-xx","lat":33.2490,"lon":130.2980,"genre":"スーパー","open_hours":"9:00-21:00"},
  {"id":182,"name":"ライフ 唐津大手口店","branch":"","address":"佐賀県唐津市xx-xx","lat":33.4420,"lon":129.9680,"genre":"スーパー","open_hours":"10:00-21:00"},

  {"id":183,"name":"浜屋 長崎浜町店（モック）","branch":"","address":"長崎県長崎市xx-xx","lat":32.7500,"lon":129.8780,"genre":"百貨店","open_hours":"10:00-20:00"},
  {"id":184,"name":"マルエツ 佐世保四ヶ町店","branch":"","address":"長崎県佐世保市xx-xx","lat":33.1590,"lon":129.7250,"genre":"スーパー","open_hours":"9:30-21:00"},

  {"id":185,"name":"ゆめマート 熊本上通店（モック）","branch":"","address":"熊本県熊本市xx-xx","lat":32.8030,"lon":130.7070,"genre":"スーパー","open_hours":"9:00-22:00"},
  {"id":186,"name":"マルエツ 八代中央店","branch":"","address":"熊本県八代市xx-xx","lat":32.5070,"lon":130.6020,"genre":"スーパー","open_hours":"9:30-21:00"},

  {"id":187,"name":"トキハ 大分府内店（モック）","branch":"","address":"大分県大分市xx-xx","lat":33.2390,"lon":131.6090,"genre":"百貨店","open_hours":"10:00-20:00"},
  {"id":188,"name":"ライフ 別府駅前店","branch":"","address":"大分県別府市xx-xx","lat":33.2790,"lon":131.4980,"genre":"スーパー","open_hours":"9:30-21:00"},

  {"id":189,"name":"ボンベルタ 橘通店（モック）","branch":"","address":"宮崎県宮崎市xx-xx","lat":31.9110,"lon":131.4230,"genre":"百貨店","open_hours":"10:00-19:00"},
  {"id":190,"name":"マルエツ 延岡駅前店","branch":"","address":"宮崎県延岡市xx-xx","lat":32.5820,"lon":131.6670,"genre":"スーパー","open_hours":"9:30-21:00"},

  {"id":191,"name":"山形屋 鹿児島天文館店（モック）","branch":"","address":"鹿児島県鹿児島市xx-xx","lat":31.5600,"lon":130.5580,"genre":"百貨店","open_hours":"10:00-20:00"},
  {"id":192,"name":"ライフ 鹿屋中央店","branch":"","address":"鹿児島県鹿屋市xx-xx","lat":31.3830,"lon":130.8520,"genre":"スーパー","open_hours":"9:30-21:00"},

  {"id":193,"name":"リウボウ 那覇国際通り店（モック）","branch":"","address":"沖縄県那覇市xx-xx","lat":26.2120,"lon":127.6810,"genre":"百貨店","open_hours":"10:00-20:00"},
  {"id":194,"name":"サンエー 沖縄市中央店（モック）","branch":"","address":"沖縄県沖縄市xx-xx","lat":26.3350,"lon":127.8010,"genre":"スーパー","open_hours":"9:00-22:00"}
]
